[
    {
        "city_name": "Tokyo",
        "latitude": 35.6897,
        "longitude": 139.692,
        "country": "JP",
        "population": 37977000,
        "is_capital": true,
        "city_id": 1,
        "country_iso": "JPN"
    },
    {
        "city_name": "Delhi",
        "latitude": 28.66,
        "longitude": 77.23,
        "country": "IN",
        "population": 29617000,
        "is_capital": false,
        "city_id": 2,
        "country_iso": "IND"
    },
    {
        "city_name": "Shanghai",
        "latitude": 31.1667,
        "longitude": 121.467,
        "country": "CN",
        "population": 22120000,
        "is_capital": false,
        "city_id": 3,
        "country_iso": "CHN"
    },
    {
        "city_name": "Paris",
        "latitude": 48.8566,
        "longitude": 2.3522,
        "country": "FR",
        "population": 11020000,
        "is_capital": true,
        "city_id": 27,
        "country_iso": "FRA"
    },
    {
        "city_name": "Seoul",
        "latitude": 37.5833,
        "longitude": 127.0,
        "country": "KR",
        "population": 21794000,
        "is_capital": true,
        "city_id": 30,
        "country_iso": "KOR"
    },
    {
        "city_name": "London",
        "latitude": 51.5072,
        "longitude": -0.1275,
        "country": "GB",
        "population": 10979000,
        "is_capital": true,
        "city_id": 33,
        "country_iso": "GBR"
    },
    {
        "city_name": "New York",
        "latitude": 40.6943,
        "longitude": -73.9249,
        "country": "US",
        "population": 18713220,
        "is_capital": false,
        "city_id": 44,
        "country_iso": "USA"
    },
    {
        "city_name": "Singapore",
        "latitude": 1.3,
        "longitude": 103.8,
        "country": "SG",
        "population": 5745000,
        "is_capital": true,
        "city_id": 56,
        "country_iso": "SGP"
    },
    {
        "city_name": "Barcelona",
        "latitude": 41.3825,
        "longitude": 2.1769,
        "country": "ES",
        "population": 4588000,
        "is_capital": false,
        "city_id": 59,
        "country_iso": "ESP"
    },
    {
        "city_name": "Sydney",
        "latitude": -33.865,
        "longitude": 151.209,
        "country": "AU",
        "population": 5312163,
        "is_capital": false,
        "city_id": 65,
        "country_iso": "AUS"
    }
]