[
    {
        "name": "Tokyo",
        "latitude": 35.6897,
        "longitude": 139.692,
        "country": "JP",
        "population": 37977000,
        "is_capital": true
    },
    {
        "name": "Delhi",
        "latitude": 28.66,
        "longitude": 77.23,
        "country": "IN",
        "population": 29617000,
        "is_capital": false
    },
    {
        "name": "Shanghai",
        "latitude": 31.1667,
        "longitude": 121.467,
        "country": "CN",
        "population": 22120000,
        "is_capital": false
    },
    {
        "name": "Dhaka",
        "latitude": 23.7161,
        "longitude": 90.3961,
        "country": "BD",
        "population": 15443000,
        "is_capital": true
    },
    {
        "name": "Sao Paulo",
        "latitude": -23.5504,
        "longitude": -46.6339,
        "country": "BR",
        "population": 22046000,
        "is_capital": false
    },
    {
        "name": "Cairo",
        "latitude": 30.0561,
        "longitude": 31.2394,
        "country": "EG",
        "population": 19372000,
        "is_capital": true
    },
    {
        "name": "Mexico City",
        "latitude": 19.4333,
        "longitude": -99.1333,
        "country": "MX",
        "population": 20996000,
        "is_capital": true
    },
    {
        "name": "Beijing",
        "latitude": 39.905,
        "longitude": 116.391,
        "country": "CN",
        "population": 19433000,
        "is_capital": true
    },
    {
        "name": "Mumbai",
        "latitude": 18.9667,
        "longitude": 72.8333,
        "country": "IN",
        "population": 23355000,
        "is_capital": false
    },
    {
        "name": "Osaka",
        "latitude": 34.6936,
        "longitude": 135.502,
        "country": "JP",
        "population": 14977000,
        "is_capital": false
    },
    {
        "name": "Chongqing",
        "latitude": 29.55,
        "longitude": 106.507,
        "country": "CN",
        "population": 7739000,
        "is_capital": false
    },
    {
        "name": "Karachi",
        "latitude": 24.86,
        "longitude": 67.01,
        "country": "PK",
        "population": 14835000,
        "is_capital": false
    },
    {
        "name": "Lagos",
        "latitude": 6.45,
        "longitude": 3.4,
        "country": "NG",
        "population": 15279000,
        "is_capital": false
    },
    {
        "name": "Buenos Aires",
        "latitude": -34.5997,
        "longitude": -58.3819,
        "country": "AR",
        "population": 16157000,
        "is_capital": true
    },
    {
        "name": "Kolkata",
        "latitude": 22.5411,
        "longitude": 88.3378,
        "country": "IN",
        "population": 17560000,
        "is_capital": false
    },
    {
        "name": "Manila",
        "latitude": 14.5958,
        "longitude": 120.977,
        "country": "PH",
        "population": 23088000,
        "is_capital": true
    },
    {
        "name": "Guangzhou",
        "latitude": 23.1288,
        "longitude": 113.259,
        "country": "CN",
        "population": 20902000,
        "is_capital": false
    },
    {
        "name": "Tianjin",
        "latitude": 39.1467,
        "longitude": 117.206,
        "country": "CN",
        "population": 10800000,
        "is_capital": false
    },
    {
        "name": "Lahore",
        "latitude": 31.5497,
        "longitude": 74.3436,
        "country": "PK",
        "population": 11021000,
        "is_capital": false
    },
    {
        "name": "Bangalore",
        "latitude": 12.9699,
        "longitude": 77.598,
        "country": "IN",
        "population": 13707000,
        "is_capital": false
    },
    {
        "name": "Rio De Janeiro",
        "latitude": -22.9083,
        "longitude": -43.1964,
        "country": "BR",
        "population": 12272000,
        "is_capital": false
    },
    {
        "name": "Shenzhen",
        "latitude": 22.535,
        "longitude": 114.054,
        "country": "CN",
        "population": 15929000,
        "is_capital": false
    },
    {
        "name": "Chennai",
        "latitude": 13.0825,
        "longitude": 80.275,
        "country": "IN",
        "population": 11324000,
        "is_capital": false
    },
    {
        "name": "Bogota",
        "latitude": 4.6126,
        "longitude": -74.0705,
        "country": "CO",
        "population": 9464000,
        "is_capital": true
    },
    {
        "name": "Jakarta",
        "latitude": -6.2146,
        "longitude": 106.845,
        "country": "ID",
        "population": 34540000,
        "is_capital": true
    },
    {
        "name": "Lima",
        "latitude": -12.05,
        "longitude": -77.0333,
        "country": "PE",
        "population": 9848000,
        "is_capital": true
    },
    {
        "name": "Paris",
        "latitude": 48.8566,
        "longitude": 2.3522,
        "country": "FR",
        "population": 11020000,
        "is_capital": true
    },
    {
        "name": "Bangkok",
        "latitude": 13.75,
        "longitude": 100.517,
        "country": "TH",
        "population": 17066000,
        "is_capital": true
    },
    {
        "name": "Hyderabad",
        "latitude": 17.3667,
        "longitude": 78.4667,
        "country": "IN",
        "population": 9746000,
        "is_capital": false
    },
    {
        "name": "Seoul",
        "latitude": 37.5833,
        "longitude": 127.0,
        "country": "KR",
        "population": 21794000,
        "is_capital": true
    },
    {
        "name": "Nanjing",
        "latitude": 32.05,
        "longitude": 118.767,
        "country": "CN",
        "population": 7496000,
        "is_capital": false
    },
    {
        "name": "Chengdu",
        "latitude": 30.6636,
        "longitude": 104.067,
        "country": "CN",
        "population": 11309000,
        "is_capital": false
    },
    {
        "name": "London",
        "latitude": 51.5072,
        "longitude": -0.1275,
        "country": "GB",
        "population": 10979000,
        "is_capital": true
    },
    {
        "name": "Luanda",
        "latitude": -8.8383,
        "longitude": 13.2344,
        "country": "AO",
        "population": 8417000,
        "is_capital": true
    },
    {
        "name": "Tehran",
        "latitude": 35.7,
        "longitude": 51.4167,
        "country": "IR",
        "population": 13633000,
        "is_capital": true
    },
    {
        "name": "Ho Chi Minh City",
        "latitude": 10.8167,
        "longitude": 106.633,
        "country": "VN",
        "population": 13312000,
        "is_capital": false
    },
    {
        "name": "Nagoya",
        "latitude": 35.1167,
        "longitude": 136.933,
        "country": "JP",
        "population": 9113000,
        "is_capital": false
    },
    {
        "name": "Wuhan",
        "latitude": 30.5872,
        "longitude": 114.288,
        "country": "CN",
        "population": 8962000,
        "is_capital": false
    },
    {
        "name": "Kuala Lumpur",
        "latitude": 3.1478,
        "longitude": 101.695,
        "country": "MY",
        "population": 8285000,
        "is_capital": true
    },
    {
        "name": "Hangzhou",
        "latitude": 30.25,
        "longitude": 120.168,
        "country": "CN",
        "population": 6446000,
        "is_capital": false
    },
    {
        "name": "Suzhou",
        "latitude": 33.6333,
        "longitude": 116.968,
        "country": "CN",
        "population": 5690000,
        "is_capital": false
    },
    {
        "name": "Surat",
        "latitude": 21.17,
        "longitude": 72.83,
        "country": "IN",
        "population": 5807000,
        "is_capital": false
    },
    {
        "name": "Dar Es Salaam",
        "latitude": -6.8,
        "longitude": 39.2833,
        "country": "TZ",
        "population": 6698000,
        "is_capital": true
    },
    {
        "name": "Baghdad",
        "latitude": 33.35,
        "longitude": 44.4167,
        "country": "IQ",
        "population": 5796000,
        "is_capital": true
    },
    {
        "name": "Shenyang",
        "latitude": 41.8039,
        "longitude": 123.426,
        "country": "CN",
        "population": 7105000,
        "is_capital": false
    },
    {
        "name": "Riyadh",
        "latitude": 24.65,
        "longitude": 46.71,
        "country": "SA",
        "population": 6881000,
        "is_capital": true
    },
    {
        "name": "Hong Kong",
        "latitude": 22.305,
        "longitude": 114.185,
        "country": "HK",
        "population": 7347000,
        "is_capital": false
    },
    {
        "name": "Foshan",
        "latitude": 23.0292,
        "longitude": 113.106,
        "country": "CN",
        "population": 7194311,
        "is_capital": false
    },
    {
        "name": "Dongguan",
        "latitude": 23.0475,
        "longitude": 113.749,
        "country": "CN",
        "population": 7981000,
        "is_capital": false
    },
    {
        "name": "Pune",
        "latitude": 18.5196,
        "longitude": 73.8553,
        "country": "IN",
        "population": 7764000,
        "is_capital": false
    },
    {
        "name": "Santiago",
        "latitude": -33.45,
        "longitude": -70.6667,
        "country": "CL",
        "population": 7007000,
        "is_capital": true
    },
    {
        "name": "Khartoum",
        "latitude": 15.6031,
        "longitude": 32.5265,
        "country": "SD",
        "population": 7282000,
        "is_capital": true
    },
    {
        "name": "Toronto",
        "latitude": 43.7417,
        "longitude": -79.3733,
        "country": "CA",
        "population": 5429524,
        "is_capital": false
    },
    {
        "name": "Belo Horizonte",
        "latitude": -19.8917,
        "longitude": -43.9478,
        "country": "BR",
        "population": 5159000,
        "is_capital": false
    },
    {
        "name": "Singapore",
        "latitude": 1.3,
        "longitude": 103.8,
        "country": "SG",
        "population": 5745000,
        "is_capital": true
    },
    {
        "name": "Qingdao",
        "latitude": 36.1167,
        "longitude": 120.4,
        "country": "CN",
        "population": 5775000,
        "is_capital": false
    },
    {
        "name": "Zhengzhou",
        "latitude": 34.7492,
        "longitude": 113.66,
        "country": "CN",
        "population": 7005000,
        "is_capital": false
    },
    {
        "name": "Barcelona",
        "latitude": 41.3825,
        "longitude": 2.1769,
        "country": "ES",
        "population": 4588000,
        "is_capital": false
    },
    {
        "name": "Alexandria",
        "latitude": 31.2,
        "longitude": 29.9167,
        "country": "EG",
        "population": 4870000,
        "is_capital": false
    },
    {
        "name": "Nairobi",
        "latitude": -1.2864,
        "longitude": 36.8172,
        "country": "KE",
        "population": 5545000,
        "is_capital": true
    },
    {
        "name": "Guadalajara",
        "latitude": 20.6767,
        "longitude": -103.348,
        "country": "MX",
        "population": 5253000,
        "is_capital": false
    },
    {
        "name": "Hanoi",
        "latitude": 21.0245,
        "longitude": 105.841,
        "country": "VN",
        "population": 7785000,
        "is_capital": true
    },
    {
        "name": "Melbourne",
        "latitude": -37.8136,
        "longitude": 144.963,
        "country": "AU",
        "population": 5078193,
        "is_capital": false
    },
    {
        "name": "Sydney",
        "latitude": -33.865,
        "longitude": 151.209,
        "country": "AU",
        "population": 5312163,
        "is_capital": false
    },
    {
        "name": "Changsha",
        "latitude": 28.1987,
        "longitude": 112.971,
        "country": "CN",
        "population": 7044118,
        "is_capital": false
    },
    {
        "name": "Kunming",
        "latitude": 25.0433,
        "longitude": 102.706,
        "country": "CN",
        "population": 6250000,
        "is_capital": false
    },
    {
        "name": "Changchun",
        "latitude": 43.9,
        "longitude": 125.2,
        "country": "CN",
        "population": 7674439,
        "is_capital": false
    },
    {
        "name": "Hefei",
        "latitude": 31.8639,
        "longitude": 117.281,
        "country": "CN",
        "population": 7457027,
        "is_capital": false
    },
    {
        "name": "Ningbo",
        "latitude": 29.875,
        "longitude": 121.549,
        "country": "CN",
        "population": 7639000,
        "is_capital": false
    },
    {
        "name": "Shantou",
        "latitude": 23.3735,
        "longitude": 116.694,
        "country": "CN",
        "population": 5319028,
        "is_capital": false
    }
]